City_ID,City,Lat,Lng,Max Temp,Humidity,Cloudiness,Wind Speed,Country,Date
0,Iqaluit,63.7506,-68.5145,20.93,79,75,17.27,CA,1697434515
1,Ulsteinvik,62.3432,5.8487,43.75,86,100,8.99,NO,1697434516
2,Olyokminsk,60.3736,120.4264,34.0,67,100,8.01,RU,1697434516
3,Polyarny,69.1989,33.4478,40.55,92,99,26.93,RU,1697434517
4,La Mira Tumbiscatio,18.6833,-102.2833,71.71,91,100,2.95,MX,1697434517
5,Waitangi,-43.9535,-176.5597,52.83,76,69,3.0,NZ,1697434517
6,Port-aux-Français,-49.35,70.2167,35.92,95,100,17.34,TF,1697434518
7,Adamstown,-25.066,-130.1015,70.9,83,75,4.7,PN,1697434518
8,Ribeira Grande,38.5167,-28.7,69.78,84,47,3.0,PT,1697434519
9,Esim,4.8699,-2.2405,76.51,90,100,7.63,GH,1697434519
10,West Island,-12.1568,96.8225,84.18,65,90,12.66,CC,1697434519
11,Kerikeri,-35.2268,173.9474,66.9,73,60,1.99,NZ,1697434520
12,Guarapari,-20.6667,-40.4975,71.89,95,100,3.69,BR,1697434520
13,Amga,60.8953,131.9608,24.98,53,5,1.01,RU,1697434521
14,Jinchang,38.4953,102.1739,64.26,18,11,9.26,CN,1697434317
15,Punta Alta,-38.8759,-62.0736,58.06,84,100,13.27,AR,1697434521
16,Hawaiian Paradise Park,19.5933,-154.9731,76.51,92,100,5.75,US,1697434522
17,Poções,-14.5297,-40.3653,65.41,81,66,7.61,BR,1697434522
18,Edinburgh of the Seven Seas,-37.0676,-12.3116,53.49,69,9,16.67,SH,1697434523
19,Margaret River,-33.95,115.0667,77.41,39,80,12.33,AU,1697434523
20,Khasab,26.1799,56.2477,90.82,56,0,1.72,OM,1697434523
21,Sechura,-5.5569,-80.8222,68.81,79,24,10.83,PE,1697434524
22,Katsuura,35.1333,140.3,70.99,58,2,6.87,JP,1697434524
23,Kavieng,-2.5744,150.7967,83.89,70,100,3.6,PG,1697434525
24,Albany,42.6001,-73.9662,48.4,82,100,8.01,US,1697434345
25,Kingston,17.997,-76.7936,83.35,88,20,4.61,JM,1697434499
26,Papatowai,-46.5619,169.4708,47.98,90,93,8.57,NZ,1697434526
27,Port Alfred,-33.5906,26.891,63.18,92,100,4.0,ZA,1697434526
28,Stanley,54.868,-1.6985,37.76,95,0,1.14,GB,1697434527
29,Avarua,-21.2078,-159.775,71.65,60,100,4.61,CK,1697434527
30,Arraial do Cabo,-22.9661,-42.0278,71.44,95,85,17.13,BR,1697434528
31,Nuku'alofa,-21.1333,-175.2,75.54,78,20,14.97,TO,1697434528
32,Moultrie,31.1799,-83.7891,57.31,88,100,4.61,US,1697434529
33,Franklin,39.9667,-83.0166,48.24,90,100,8.05,US,1697434529
34,Bayan,46.0833,127.4,49.42,24,0,17.6,CN,1697434530
35,Cambria,35.5641,-121.0808,68.97,98,0,1.99,US,1697434530
36,Aasiaat,68.7098,-52.8699,17.22,82,100,3.27,GL,1697434530
37,Elverum,60.8819,11.5623,31.35,81,19,2.77,NO,1697434531
38,Sitka,57.0531,-135.33,51.69,87,75,4.61,US,1697434398
39,Udachny,66.4167,112.4,23.45,92,100,13.33,RU,1697434532
40,Sinabang,2.4803,96.3801,81.14,79,88,6.73,ID,1697434532
41,Quellón,-43.1167,-73.6167,43.63,92,91,7.63,CL,1697434533
42,Pápa,47.33,17.4674,39.13,87,0,6.91,HU,1697434533
43,Opuwo,-18.0607,13.84,73.2,18,46,3.83,NA,1697434533
44,Isafjordur,66.0755,-23.124,34.75,92,100,16.53,IS,1697434534
45,Dabola,10.75,-11.1167,70.66,87,99,3.15,GN,1697434534
46,Nandyāl,15.4833,78.4833,90.99,44,36,6.13,IN,1697434311
47,Sisimiut,66.9395,-53.6735,25.05,75,100,1.92,GL,1697434535
48,Olonkinbyen,70.9221,-8.7187,32.16,68,100,11.03,SJ,1697434535
49,Tura,25.5198,90.2201,82.38,58,3,3.0,IN,1697434536
50,Nizhneudinsk,54.9076,99.0276,39.02,96,100,5.99,RU,1697434536
51,Uturoa,-16.7333,-151.4333,78.22,78,26,15.1,PF,1697434537
52,Hermanus,-34.4187,19.2345,63.46,79,85,14.5,ZA,1697434537
53,Iskateley,67.6803,53.1512,33.03,87,97,20.0,RU,1697434537
54,Port Elizabeth,-33.918,25.5701,63.32,94,75,14.97,ZA,1697434333
55,Grytviken,-54.2811,-36.5092,31.89,92,99,10.71,GS,1697434539
56,Puerto Baquerizo Moreno,-0.9,-89.6,74.16,83,89,8.68,EC,1697434539
57,Vilyuchinsk,52.9306,158.4028,48.47,96,100,9.53,RU,1697434539
58,Illizi,26.4833,8.4667,66.0,25,5,3.15,DZ,1697434540
59,Kas,36.2018,29.6377,74.44,47,0,6.08,TR,1697434540
60,Bardai,11.65,7.2333,70.84,45,88,5.19,NG,1697434540
61,Sandnessjøen,66.0217,12.6316,44.71,70,75,18.41,NO,1697434541
62,La Ronge,55.1001,-105.2842,50.25,66,75,10.36,CA,1697434541
63,Bredasdorp,-34.5322,20.0403,63.18,84,45,8.72,ZA,1697434541
64,Punta Arenas,-53.15,-70.9167,41.11,70,40,10.36,CL,1697434333
65,Diu,20.7141,70.9822,86.88,53,1,5.95,IN,1697434542
66,Wailua Homesteads,22.0669,-159.378,81.03,87,75,8.05,US,1697434543
67,Muravlenko,63.7898,74.523,34.9,97,100,19.48,RU,1697434543
68,Bamboo Flat,11.7,92.7167,86.09,74,40,9.22,IN,1697434543
69,Bambanglipuro,-7.95,110.2833,85.39,61,86,17.47,ID,1697434544
70,Malanje,-9.5402,16.341,69.17,88,97,1.79,AO,1697434544
71,East London,-33.0153,27.9116,61.74,100,100,16.11,ZA,1697434545
72,Invercargill,-46.4,168.35,50.02,83,91,5.01,NZ,1697434545
73,Lukoyanov,55.0277,44.4786,51.37,61,64,10.2,RU,1697434545
74,Lihue,21.9789,-159.3672,81.64,86,75,8.05,US,1697434310
75,Karratha,-20.7377,116.8463,97.11,17,0,17.67,AU,1697434546
76,Amsterdam-Zuidoost,52.3075,4.9722,48.02,96,40,4.0,NL,1697434547
77,Tsiombe,-25.3,45.4833,78.17,52,94,3.69,MG,1697434548
78,Glace Bay,46.1969,-59.957,53.98,95,100,31.07,CA,1697434270
79,Boali,4.8005,18.1275,70.02,95,99,1.52,CF,1697434548
80,Lompoc,34.6391,-120.4579,58.93,87,0,11.99,US,1697434549
81,Kulhudhuffushi,6.6221,73.07,83.1,70,45,12.35,MV,1697434549
82,College,64.8569,-147.8028,34.9,90,40,4.61,US,1697434550
83,Anadyr,64.75,177.4833,34.3,93,75,6.71,RU,1697434550
84,Longyearbyen,78.2186,15.6401,26.44,68,75,20.71,SJ,1697434495
85,Tres Isletas,-26.3407,-60.4321,81.79,52,80,7.38,AR,1697434551
86,Bo`ka,40.8108,69.1986,61.21,27,9,2.82,UZ,1697434551
87,Saint-Philippe,-21.3585,55.7679,80.19,75,16,8.48,RE,1697434552
88,Lerwick,60.1545,-1.1494,50.0,79,99,15.59,GB,1697434552
89,Camaná,-16.6228,-72.7111,64.31,89,58,4.79,PE,1697434553
90,Mwene-Ditu,-7.0,23.45,74.16,68,94,0.94,CD,1697434553
91,Mayqayyng,51.4625,75.7986,51.87,46,18,15.57,KZ,1697434553
92,Lebu,-37.6167,-73.65,46.06,85,1,14.63,CL,1697434286
93,Bethel,41.3712,-73.414,46.9,84,40,0.0,US,1697434554
94,Nouadhibou,20.931,-17.0347,75.79,59,66,10.74,MR,1697434555
95,Mhamid,29.82,-5.72,71.73,26,70,6.44,MA,1697434555
96,Yarmouth,41.7057,-70.2286,55.45,76,100,18.01,US,1697434556
97,Poronaysk,49.2167,143.1167,52.29,75,100,23.42,RU,1697434556
98,Waajid,3.8096,43.2463,83.97,55,84,11.45,SO,1697434556
99,Vilhena,-12.7406,-60.1458,74.25,64,37,2.42,BR,1697434557
100,Whitehorse,60.7161,-135.0538,40.01,84,0,8.05,CA,1697434557
101,Manicoré,-5.8092,-61.3003,78.28,67,43,1.66,BR,1697434558
102,Puerto Natales,-51.7236,-72.4875,40.87,74,93,10.78,CL,1697434558
103,Tabou,4.423,-7.3528,75.34,92,76,5.88,CI,1697434559
104,Shimoda,34.6667,138.95,73.76,68,53,2.24,JP,1697434559
105,Mahon,39.8885,4.2658,64.96,94,20,3.44,ES,1697434560
106,Yellowknife,62.456,-114.3525,45.41,100,75,2.3,CA,1697434560
107,Blackmans Bay,-43.0167,147.3167,48.72,84,70,5.99,AU,1697434561
108,Khandyga,62.6667,135.6,16.65,89,90,2.68,RU,1697434561
109,Taoudenni,22.6783,-3.9836,79.5,21,1,6.13,ML,1697434562
110,Ilulissat,69.2167,-51.1,19.42,86,100,25.32,GL,1697434562
111,Weno,7.4515,151.8468,87.75,74,100,8.05,FM,1697434562
112,Minas de Marcona,-15.2119,-75.1103,57.56,86,20,7.76,PE,1697434563
113,Fortuna,40.5982,-124.1573,63.52,75,0,10.36,US,1697434563
114,Carnarvon,-24.8667,113.6333,94.23,24,0,8.12,AU,1697434563
115,São Gabriel da Cachoeira,-0.1303,-67.0892,71.94,98,100,1.21,BR,1697434564
116,Coquimbo,-29.9533,-71.3436,55.13,94,75,6.91,CL,1697434293
117,Labrador City,52.9463,-66.9114,35.51,87,100,12.66,CA,1697434565
118,Greenville,35.6127,-77.3663,50.04,95,75,0.0,US,1697434513
119,Hilo,19.7297,-155.09,76.73,89,100,5.75,US,1697434302
120,Colipapa,9.4726,122.5616,85.93,67,18,6.85,PH,1697434566
121,Naze,28.3667,129.4833,76.12,51,0,11.81,JP,1697434567
122,Igarka,67.4667,86.5833,33.58,99,100,4.59,RU,1697434567
123,Vernon,50.2581,-119.2691,56.73,79,100,5.75,CA,1697434510
124,Lázaro Cárdenas,17.9583,-102.2,79.39,89,100,3.49,MX,1697434568
125,Koratagere,13.5228,77.2331,84.0,47,11,6.98,IN,1697434569
126,Ancud,-41.8697,-73.8203,42.3,90,25,3.56,CL,1697434569
127,Port Saint John's,-31.6229,29.5448,64.62,93,100,16.62,ZA,1697434570
128,Kununurra,-15.7667,128.7333,100.38,7,0,12.66,AU,1697434570
129,Murewa,-17.6432,31.784,70.81,63,84,10.56,ZW,1697434570
130,Praia da Vitória,38.7333,-27.0667,68.25,88,75,33.46,PT,1697434571
131,Mossendjo,-2.9506,12.7261,70.32,98,100,1.61,CG,1697434571
132,St. John's,47.5649,-52.7093,52.68,95,100,6.91,CA,1697434492
133,Ushuaia,-54.8,-68.3,35.26,80,0,3.44,AR,1697434572
134,Guerrero Negro,27.9769,-114.0611,68.23,84,0,8.99,MX,1697434572
135,Thunder Bay,48.4001,-89.3168,46.38,76,100,6.91,CA,1697434452
136,Broome,42.2506,-75.833,47.19,96,100,8.05,US,1697434573
137,Laguna,38.421,-121.4238,70.77,59,0,3.44,US,1697434574
138,Tiksi,71.6872,128.8694,18.14,88,100,16.96,RU,1697434574
139,Arkhangelsk,64.5401,40.5433,39.13,78,81,13.69,RU,1697434574
140,Batang Berjuntai,3.3833,101.4167,89.65,76,89,2.68,MY,1697434361
141,Saacow,1.6279,42.4407,84.24,63,96,9.4,SO,1697434575
142,Vanimo,-2.6741,141.3028,84.51,68,67,6.91,PG,1697434576
143,Kenora,49.8167,-94.4337,43.77,87,0,8.05,CA,1697434576
144,Colares,38.7992,-9.4469,68.76,96,100,15.99,PT,1697434577
145,Acaraú,-2.8856,-40.12,78.37,81,83,16.96,BR,1697434577
146,Mili,6.0815,171.735,83.64,71,95,6.58,MH,1697434577
147,George Town,5.4112,100.3354,86.95,87,40,4.61,MY,1697434375
148,Badr Ḩunayn,23.7829,38.7905,89.6,38,1,1.97,SA,1697434578
149,Masterton,-40.9597,175.6575,55.89,66,97,6.2,NZ,1697434579
150,Petropavlovsk-Kamchatskiy,53.0452,158.6483,46.99,88,75,11.18,RU,1697434579
151,Badger,64.8,-147.5333,34.81,93,0,4.61,US,1697434579
152,Susuman,62.7833,148.1667,20.98,91,100,3.0,RU,1697434580
153,Aleg,17.0481,-13.9209,86.23,13,0,7.67,MR,1697434580
154,Vila Franca do Campo,37.7167,-25.4333,70.88,99,94,25.48,PT,1697434581
155,Juan Griego,11.0817,-63.9655,84.33,89,16,10.36,VE,1697434581
156,Thompson,55.7435,-97.8558,33.96,100,0,2.3,CA,1697434581
157,Waingapu,-9.6567,120.2641,89.13,49,33,16.96,ID,1697434582
158,Dadukou,26.5479,101.7054,82.44,46,6,1.81,CN,1697434583
159,Port Macquarie,-31.4333,152.9167,77.59,50,89,7.52,AU,1697434360
160,Dudinka,69.4058,86.1778,19.67,91,33,8.01,RU,1697434584
161,Spasskoye,44.6108,132.7969,48.06,35,24,19.3,RU,1697434585
162,Independência,-5.3964,-40.3086,76.96,69,78,7.27,BR,1697434585
163,Basco,20.4487,121.9702,80.73,77,72,14.47,PH,1697434586
164,Mikun',62.3547,50.0771,43.99,83,77,9.69,RU,1697434586
165,Grand Falls-Windsor,48.9332,-55.6649,41.5,93,99,4.5,CA,1697434586
166,Ola,59.5833,151.2833,43.14,62,100,5.91,RU,1697434587
167,Dem'yanovo,60.3511,47.0842,45.3,87,96,8.68,RU,1697434587
168,Haiku-Pauwela,20.9219,-156.3051,78.04,76,40,14.97,US,1697434588
169,Codrington,-38.2667,141.9667,55.45,53,50,17.63,AU,1697434588
170,Kharan,28.5833,65.4167,80.06,29,25,2.42,PK,1697434588
171,Bengkulu,-3.8004,102.2655,82.02,72,37,9.98,ID,1697434589
172,Palikir,6.9248,158.1611,86.74,74,75,4.61,FM,1697434589
173,Vorgashor,67.5833,63.95,31.93,99,100,9.24,RU,1697434590
174,Port Mathurin,-19.6833,63.4167,75.31,82,23,12.44,MU,1697434590
175,Acajutla,13.5928,-89.8275,79.27,84,81,4.25,SV,1697434590
176,Mynämäki,60.7446,22.0243,39.34,66,80,11.52,FI,1697434591
177,Afaahiti,-17.75,-149.2833,78.06,81,64,13.35,PF,1697434591
178,Atafu Village,-8.5421,-172.5159,83.03,78,91,17.78,TK,1697434593
179,Rehoboth,-23.3167,17.0833,62.76,23,0,7.63,NA,1697434495
180,El Calafate,-50.3408,-72.2768,40.1,67,31,8.5,AR,1697434595
181,Kenai,60.5544,-151.2583,45.14,88,0,13.8,US,1697434440
182,Oyama,36.3,139.8,74.35,34,0,3.13,JP,1697434595
183,Tahe,52.3333,124.7333,42.51,30,12,10.4,CN,1697434596
184,Harstad,68.799,16.5293,42.15,98,100,32.01,NO,1697434596
185,Otjiwarongo,-20.4637,16.6477,68.11,13,45,15.73,NA,1697434597
186,Puerto Gaitán,4.3133,-72.0816,72.84,88,99,5.97,CO,1697434597
187,Enriquillo,17.9,-71.2333,79.95,83,53,1.28,DO,1697434597
188,Qaqortoq,60.7167,-46.0333,35.82,94,100,5.41,GL,1697434598
189,El Paraíso,13.8667,-86.55,69.26,94,100,0.38,HN,1697434598
190,Valle de La Pascua,9.2155,-66.0073,71.82,97,71,4.59,VE,1697434599
191,Cabo San Lucas,22.8909,-109.9124,82.76,81,20,10.54,MX,1697434588
192,Tazovsky,67.4667,78.7,34.61,84,100,10.71,RU,1697434599
193,Rurrenabaque,-14.4413,-67.5278,76.12,63,33,1.57,BO,1697434600
194,Prince Rupert,54.3161,-130.3201,53.29,95,75,9.22,CA,1697434537
195,Morada Nova,-5.1067,-38.3725,75.81,70,53,6.13,BR,1697434601
196,Reggane,26.7158,0.1714,76.06,20,10,7.18,DZ,1697434601
197,Chamdo,31.1667,97.2333,49.6,30,32,8.05,CN,1697434602
198,Price,39.5994,-110.8107,50.11,37,0,9.22,US,1697434602
199,Palu,-0.8917,119.8707,89.46,63,17,3.2,ID,1697434603
200,Tôlanaro,-25.0319,46.9987,75.27,73,75,3.44,MG,1697434603
201,Selfoss,63.9331,-20.9971,42.04,92,100,5.75,IS,1697434604
202,Ubinskoye,55.3068,79.6802,47.39,50,96,16.28,RU,1697434604
203,Ust-Nera,64.5667,143.2,8.22,95,35,5.99,RU,1697434604
204,Machico,32.7,-16.7667,79.43,61,20,8.05,PT,1697434605
205,Orda,57.1951,56.9091,52.14,83,97,18.5,RU,1697434605
206,Huilong,31.8111,121.655,72.41,48,0,8.5,CN,1697434606
207,Dayr az Zawr,35.3359,40.1408,72.27,51,3,17.38,SY,1697434606
208,Ōkuchi-shinohara,32.0667,130.6167,74.08,52,0,8.66,JP,1697434607
209,Constanța,44.1833,28.65,47.08,77,100,23.22,RO,1697434442
210,Kargasok,59.0556,80.8572,40.96,78,99,10.0,RU,1697434607
211,Keflavik,64.0049,-22.5624,43.23,100,75,9.22,IS,1697434608
212,Ad Dilam,23.9915,47.1627,86.41,10,0,9.42,SA,1697434608
213,Bucerías,20.75,-105.3333,82.38,78,20,2.3,MX,1697434442
214,Hancheng,32.5186,112.3522,79.81,41,0,7.05,CN,1697434609
215,Hithadhoo,-0.6,73.0833,81.66,79,9,18.63,MV,1697434609
216,Jayapura,-2.5333,140.7,78.19,69,71,6.62,ID,1697434610
217,Oakdale,44.963,-92.9649,48.65,83,0,8.05,US,1697434610
218,Fort Bragg,35.139,-79.006,56.82,82,100,6.91,US,1697434533
219,Darwin,-12.4611,130.8418,92.89,46,0,13.8,AU,1697434611
220,Tavda,58.0425,65.2726,47.7,87,100,11.01,RU,1697434612
221,Forbes,-33.3833,148.0167,68.92,24,63,22.44,AU,1697434612
222,Coahuayana de Hidalgo,18.7,-103.6583,78.75,85,100,2.01,MX,1697434612
223,Port Hedland,-20.3167,118.5667,102.25,11,0,16.11,AU,1697434613
224,Cape Coast,5.1053,-1.2466,76.82,90,73,8.32,GH,1697434613
225,Puerto Ayora,-0.7393,-90.3518,75.54,90,28,3.0,EC,1697434613
226,Mount Gambier,-37.8333,140.7667,56.03,49,58,12.33,AU,1697434614
227,Callao,-12.0667,-77.15,67.71,77,100,10.36,PE,1697434614
228,Kruisfontein,-34.0033,24.7314,61.72,84,88,13.51,ZA,1697434615
229,Revda,56.801,59.9303,49.44,87,100,13.47,RU,1697434338
230,Mwinilunga,-11.7358,24.4293,71.42,69,100,3.78,ZM,1697434615
231,Patacamaya,-17.2333,-67.9167,43.34,82,19,8.23,BO,1697434616
232,Hadibu,12.65,54.0333,82.24,67,90,0.69,YE,1697434617
233,Princeville,45.7668,-61.2985,53.91,95,100,10.36,CA,1697434617
234,Naryan-Mar,67.6713,53.087,33.12,87,97,20.0,RU,1697434617
235,Pangai,-19.8,-174.35,75.31,73,75,19.57,TO,1697434618
236,Poso,-1.3959,120.7524,87.8,62,19,5.5,ID,1697434618
237,Saipan,15.1355,145.701,86.7,70,0,8.05,MP,1697434619
238,Falmouth,50.1544,-5.0711,52.38,71,100,12.66,GB,1697434514
239,Hamilton,39.1834,-84.5333,49.84,87,100,9.22,US,1697434620
240,Holualoa,19.6228,-155.9522,76.84,92,75,6.91,US,1697434620
241,Deyang,31.1302,104.382,69.42,71,96,5.06,CN,1697434620
242,Caleta de Carquín,-11.0925,-77.6267,65.57,90,89,7.81,PE,1697434621
243,Saldus,56.6636,22.4881,40.08,84,74,9.84,LV,1697434621
244,Gembu,6.7,11.2667,63.3,87,97,1.95,NG,1697434622
245,Saint Paul Harbor,57.79,-152.4072,45.91,93,100,20.71,US,1697434622
246,Port Lincoln,-34.7333,135.8667,57.96,56,26,15.5,AU,1697434622
247,Chhor,25.5167,69.7667,90.57,46,8,16.58,PK,1697434623
248,Riosucio,5.4216,-75.7032,53.08,98,91,1.01,CO,1697434623
249,Pijijiapan,15.7011,-93.23,76.05,91,100,5.03,MX,1697434623
250,Slave Lake,55.2834,-114.769,35.58,93,0,2.3,CA,1697434624
251,Namtsy,62.7161,129.6658,25.03,58,13,5.53,RU,1697434624
252,Tres Palos,18.1833,-101.6167,73.22,97,100,3.85,MX,1697434625
253,Diapaga,12.0708,1.7889,77.95,68,96,6.98,BF,1697434625
254,Bilibino,68.0546,166.4372,12.96,96,84,2.57,RU,1697434625
255,M'Sila,35.7058,4.5419,67.48,28,19,8.5,DZ,1697434626
256,Mount Isa,-20.7333,139.5,92.97,10,0,12.66,AU,1697434626
257,Keokuk,40.3973,-91.3849,45.09,87,20,6.91,US,1697434627
258,Pisco,-13.7,-76.2167,66.25,82,20,1.14,PE,1697434473
259,Zaozërsk,69.4005,32.4476,38.07,93,100,24.43,RU,1697434628
260,Gilgit,35.9221,74.3087,62.04,50,100,2.17,PK,1697434628
261,Pemangkat,1.1667,108.9667,84.25,73,83,4.38,ID,1697434488
262,Santa Cruz de la Sierra,-17.8,-63.1667,78.26,69,13,8.05,BO,1697434629
263,Rongelap,11.1635,166.8941,83.55,73,17,12.68,MH,1697434629
264,Mar del Plata,-38.0023,-57.5575,57.09,96,54,6.91,AR,1697434523
265,Blagoevgrad,42.0167,23.1,52.3,61,85,15.99,BG,1697434630
266,Gagnoa,6.1293,-5.9437,71.82,100,100,2.33,CI,1697434622
267,Inhambane,-23.865,35.3833,73.38,83,75,3.44,MZ,1697434631
268,Linda,39.1277,-121.5508,73.27,56,0,3.44,US,1697434631
269,Umm Hājar,13.2954,19.6966,85.95,44,62,5.35,TD,1697434632
270,Peterhead,57.5058,-1.7981,37.8,76,98,10.02,GB,1697434632
271,Bridlington,54.0831,-0.1919,39.13,73,100,4.81,GB,1697434467
272,Puerto Deseado,-47.7503,-65.8938,46.87,59,74,4.36,AR,1697434633
273,Geraldton,-28.7667,114.6,102.61,7,55,8.05,AU,1697434390
274,Saldanha,-33.0117,17.9442,59.05,75,2,6.06,ZA,1697434634
275,Zhuanghe,39.7008,122.9911,60.78,25,0,12.41,CN,1697434628
276,Talnakh,69.4865,88.3972,25.59,93,82,4.56,RU,1697434635
277,Lautoka,-17.6167,177.4667,82.26,69,40,12.66,FJ,1697434635
278,Flying Fish Cove,-10.4217,105.6791,82.08,83,100,11.5,CX,1697434635
279,Tucumã,-0.1833,-50.05,79.77,80,31,8.75,BR,1697434635
280,Amuñgan,15.3652,119.9582,86.61,71,70,5.01,PH,1697434635
281,Miyazu,35.5333,135.1833,71.8,53,17,9.51,JP,1697434636
282,Texarkana,33.4251,-94.0477,52.11,82,0,5.75,US,1697434539
283,Chunskiy,56.0815,99.6342,39.67,86,100,8.97,RU,1697434636
284,Ejirin,6.6142,3.9002,76.75,94,95,2.37,NG,1697434636
285,Qulsary,46.9531,54.0198,55.47,41,0,18.95,KZ,1697434637
286,Kirakira,-10.4544,161.9205,82.65,79,93,4.36,SB,1697434637
287,Gizo Government Station,-8.103,156.8419,84.36,76,64,6.82,SB,1697434638
288,Qom,34.6401,50.8764,71.58,29,6,5.06,IR,1697434638
289,Chamical,-30.36,-66.314,72.7,40,80,4.0,AR,1697434638
290,Umba,66.6871,34.3429,38.39,65,100,11.99,RU,1697434639
291,El Granada,37.5027,-122.4694,65.14,82,20,10.36,US,1697434639
292,Shache,38.4167,77.2406,68.13,20,100,4.81,CN,1697434640
293,Koronowo,53.3137,17.937,42.84,94,30,13.47,PL,1697434640
294,Chonchi,-42.6128,-73.8092,43.12,98,79,2.84,CL,1697434640
295,Molėtai,55.2333,25.4167,39.4,89,78,7.9,LT,1697434641
296,Suntar,62.1444,117.6319,29.14,83,100,8.01,RU,1697434641
297,Balotra,25.8333,72.2333,89.51,36,29,14.65,IN,1697434642
298,Ribas do Rio Pardo,-20.4431,-53.7592,81.0,52,93,4.32,BR,1697434642
299,Atkarsk,51.8718,45.0078,55.15,65,0,17.49,RU,1697434643
300,Conception Bay South,47.4999,-52.9981,52.74,96,100,10.04,CA,1697434643
301,Jolo,6.05,121.0167,86.04,66,65,1.77,PH,1697434644
302,Idanre,7.1127,5.1159,71.44,98,100,1.63,NG,1697434644
303,Askøy,60.4092,5.226,39.74,100,75,2.3,NO,1697434645
304,Crane,31.3974,-102.3501,56.68,43,0,8.39,US,1697434645
305,Lycksele,64.5954,18.6735,35.47,69,98,14.97,SE,1697434645
306,Cologne,50.9333,6.95,41.86,90,32,2.48,DE,1697434576
307,Queenstown,-31.8976,26.8753,53.78,88,100,6.91,ZA,1697434645
308,San Borja,-14.8167,-66.85,78.55,56,33,2.95,BO,1697434646
309,Korostyshiv,50.3172,29.0563,44.74,70,100,10.74,UA,1697434646
310,Laojunmiao,39.8333,97.7333,47.84,36,98,4.41,CN,1697434646
311,Sanya,18.2431,109.505,89.76,55,40,11.18,CN,1697434646
312,Massakory,12.996,15.7293,85.08,56,44,3.49,TD,1697434647
313,Ta`ū,-14.2336,-169.5144,79.29,78,52,22.32,AS,1697434647
314,Ascope,-7.7144,-79.1078,63.73,84,88,3.58,PE,1697434647
315,Quibdó,5.6947,-76.6611,73.53,99,95,1.72,CO,1697434648
316,Vorkuta,67.5,64.0,32.2,99,100,9.17,RU,1697434648
317,Astara,38.5,48.6667,67.98,80,98,3.69,AZ,1697434648
318,Shanwei,22.782,115.3475,80.92,63,78,11.68,CN,1697434649
319,Ürümqi,43.801,87.6005,50.95,58,20,6.71,CN,1697434650
320,Yelizovo,53.1873,158.3805,48.34,100,75,11.18,RU,1697434650
321,Katsuren-haebaru,26.3369,127.8719,83.17,43,20,12.66,JP,1697434650
322,Claveria,18.6074,121.0832,84.83,69,56,13.87,PH,1697434651
323,Kabalo,-6.05,26.9167,76.64,74,93,3.78,CD,1697434651
324,Vila Velha,-20.3297,-40.2925,73.35,99,75,2.3,BR,1697434652
325,Bereeda,11.8704,51.0579,84.29,59,6,4.38,SO,1697434652
326,Pontianak,-0.0333,109.3333,89.58,66,75,5.75,ID,1697434653
327,São Vicente,-23.9631,-46.3919,75.38,26,9,1.1,BR,1697434653
328,Freetown,8.484,-13.2299,77.45,82,80,1.16,SL,1697434653
329,Trondheim,63.4305,10.3951,42.89,93,100,1.99,NO,1697434654
330,Cologne,50.9333,6.95,41.86,90,32,2.48,DE,1697434408
331,Jamestown,42.097,-79.2353,47.79,98,100,5.75,US,1697434434
332,Selsey,50.735,-0.7898,46.0,87,100,1.01,GB,1697434655
333,Castillos,-34.1667,-53.8333,60.33,92,100,11.99,UY,1697434655
334,Koné,-21.0595,164.8658,76.39,73,99,6.04,NC,1697434656
335,Gouré,13.9835,10.2704,82.54,24,51,8.3,NE,1697434656
336,Egilsstadir,65.2653,-14.3948,35.51,93,100,4.61,IS,1697434657
337,San Juan,-31.5375,-68.5364,69.85,23,0,21.88,AR,1697434657
338,Eyl,7.9803,49.8164,84.54,64,87,3.58,SO,1697434657
339,Taroa,8.7058,171.2275,82.96,73,100,9.73,MH,1697434658
340,Yurgamysh,55.3714,64.4656,49.84,69,98,13.0,RU,1697434658
341,Ilorin,8.5,4.55,72.48,89,84,6.44,NG,1697434659
342,Merizo Village,13.2658,144.6691,86.99,83,73,5.48,GU,1697434659
343,Am Timan,11.0297,20.2827,75.25,82,100,5.88,TD,1697434659
344,Al Lagowa,11.4,29.1333,80.74,63,100,7.02,SD,1697434660
345,Kourou,5.1552,-52.6478,75.25,83,93,10.04,GF,1697434660
346,Alytus,54.4,24.05,41.36,87,73,7.25,LT,1697434660
347,Al Manāqil,14.2459,32.9891,93.0,25,6,12.28,SD,1697434661
348,Gwadar,25.1216,62.3254,82.6,69,70,8.43,PK,1697434661
349,Boa Vista,2.8197,-60.6733,76.98,88,20,6.91,BR,1697434661
350,Pākāla,13.4667,79.1167,84.61,45,32,8.95,IN,1697434662
351,Enewetak,11.3474,162.3373,83.93,77,100,11.72,MH,1697434662
352,Correia Pinto,-27.5847,-50.3611,56.79,98,100,4.41,BR,1697434663
353,Dunedin,-45.8742,170.5036,48.79,86,100,3.0,NZ,1697434663
354,San Fernando de Apure,7.8878,-67.4724,75.96,90,97,4.14,VE,1697434663
355,Point Pedro,9.8167,80.2333,83.7,72,25,9.08,LK,1697434664
356,Springbok,-29.6643,17.8865,62.85,39,0,6.2,ZA,1697434664
357,Dryden,49.7833,-92.7503,35.89,100,0,2.3,CA,1697434665
358,Al Jahra,29.3375,47.6581,89.55,21,0,11.01,KW,1697434665
359,Ardakān,32.31,54.0175,76.57,20,20,6.33,IR,1697434665
360,Huron,41.1501,-82.5499,48.76,63,100,12.55,US,1697434666
361,Tamanghasset,22.785,5.5228,67.91,30,0,11.5,DZ,1697434666
362,Kodumudi,11.0775,77.8836,85.44,65,96,1.25,IN,1697434667
363,Ribeira Brava,32.65,-17.0667,79.43,53,100,7.49,PT,1697434667
364,Robāţ Karīm,35.4846,51.0829,67.86,29,40,11.5,IR,1697434667
365,Ghat,24.9647,10.1728,73.69,25,3,2.68,LY,1697434668
366,Portland,45.5234,-122.6762,63.25,87,75,5.99,US,1697434511
367,Mata-Utu,-13.2816,-176.1745,81.14,79,67,20.18,WF,1697434669
368,Środa Wielkopolska,52.2284,17.2762,43.21,87,19,13.22,PL,1697434669
369,Jiwani,25.05,61.7417,82.4,71,85,8.37,PK,1697434670
370,Korla,41.7597,86.1469,63.54,29,17,3.56,CN,1697434670
371,Chibougamau,49.9168,-74.3659,44.22,81,0,11.5,CA,1697434670
372,Villa Gesell,-37.2639,-56.973,55.78,94,33,15.75,AR,1697434671
373,Ust'-Barguzin,53.45,108.9833,46.09,51,88,3.0,RU,1697434672
374,New Norfolk,-42.7826,147.0587,49.91,70,75,7.29,AU,1697434549
375,Pangoa,-12.1167,-73.0,66.78,97,24,3.8,PE,1697434672
376,Aitape,-3.1374,142.3475,84.9,66,83,5.23,PG,1697434673
377,Letlhakeng,-24.0944,25.0298,69.08,68,75,7.63,BW,1697434673
378,Betio Village,1.358,172.9211,86.04,68,100,5.46,KI,1697434673
379,Murghab,38.1702,73.9667,34.93,47,100,5.28,TJ,1697434674
380,Lubang,13.8584,120.124,83.95,75,76,14.58,PH,1697434674
381,Chetwayi,10.5333,76.05,83.21,74,29,6.62,IN,1697434675
382,Utrik,11.2278,169.8474,83.37,76,39,13.18,MH,1697434675
383,Tocopilla,-22.092,-70.1979,63.82,70,36,0.67,CL,1697434675
384,Arteche,12.2645,125.4048,83.12,80,49,3.56,PH,1697434676
385,Kirs,59.3388,52.2447,49.17,96,100,10.0,RU,1697434676
386,Słupsk,54.4641,17.0287,42.46,72,40,12.59,PL,1697434677
387,São João da Barra,-21.6403,-41.0511,72.52,95,100,4.85,BR,1697434677
388,Podgornoye,51.735,39.1496,50.65,76,0,6.71,RU,1697434678
389,Tingo María,-9.2895,-76.0088,67.14,95,54,1.72,PE,1697434678
390,Beyneu,45.3167,55.2,55.08,34,0,19.44,KZ,1697434679
391,Sumbawa Besar,-8.5,117.4333,96.39,33,17,10.07,ID,1697434679
392,Parintins,-2.6283,-56.7358,77.9,64,4,1.86,BR,1697434680
393,Puerto Santa,-8.9906,-78.6456,65.41,89,98,7.65,PE,1697434680
394,New Plymouth,-39.0667,174.0833,58.8,74,95,8.34,NZ,1697434680
395,Tanout,14.9709,8.8879,79.84,23,81,10.47,NE,1697434681
396,Mejit,10.2753,170.8646,83.1,75,69,12.48,MH,1697434681
397,Tamala,52.541,43.2515,53.65,77,0,17.02,RU,1697434682
398,Iron River,46.0927,-88.6423,43.56,74,99,9.37,US,1697434682
399,Kearney,40.6995,-99.0815,36.1,87,0,8.05,US,1697434682
400,Al Ḩawātah,13.4167,34.6333,87.24,48,14,7.63,SD,1697434683
401,Concepción,-36.827,-73.0498,48.0,76,0,8.05,CL,1697434683
402,Qui Nhon,13.7667,109.2333,76.59,94,100,8.05,VN,1697434618
403,Kiunga,-6.1219,141.2906,82.29,85,96,2.33,PG,1697434684
404,Thermalito,39.5113,-121.5869,69.6,48,0,5.75,US,1697434684
405,Hailar,49.2,119.7,50.14,30,28,6.85,CN,1697434685
406,Labuan,5.2767,115.2417,89.96,66,20,7.0,MY,1697434685
407,Ilhabela,-23.7781,-45.3581,71.1,96,91,4.43,BR,1697434686
408,Wabash,40.7978,-85.8205,48.72,91,100,12.17,US,1697434625
409,Leova,46.4786,28.2553,48.11,69,100,17.31,MD,1697434658
410,Nemuro,43.3236,145.575,57.31,77,55,10.38,JP,1697434687
411,Palmer,42.1584,-72.3287,50.25,86,100,3.44,US,1697434687
412,San Rafael,-34.6177,-68.3301,61.39,20,6,18.84,AR,1697434688
413,Kapaa,22.0752,-159.319,82.38,86,75,8.05,US,1697434688
414,Sos'va,59.1766,61.8558,54.05,84,99,11.99,RU,1697434688
415,San Antonio de Palé,-1.4014,5.6325,78.66,81,100,15.57,GQ,1697434689
416,Pionerskiy,54.9508,20.2275,49.75,56,100,17.18,RU,1697434689
417,Cajamarca,-7.1638,-78.5003,53.33,88,86,4.81,PE,1697434690
418,Nuuk,64.1835,-51.7216,29.01,74,75,9.22,GL,1697434690
419,Tauragė,55.2522,22.2897,41.4,81,52,6.08,LT,1697434691
420,Buala,-8.145,159.5921,82.63,77,90,3.02,SB,1697434691
421,Guider,9.9342,13.9486,80.22,66,100,3.51,CM,1697434691
422,Qarazhal,48.0078,70.7903,51.35,43,34,3.65,KZ,1697434692
423,Talara,-4.5772,-81.2719,68.63,84,25,11.97,PE,1697434692
424,Qaisumah,28.3112,46.1273,78.76,25,0,13.8,SA,1697434693
425,Langsa,4.4683,97.9683,90.41,56,93,5.44,ID,1697434693
426,Izhevsk,56.85,53.2333,54.34,87,49,17.0,RU,1697434693
427,Kuching,1.55,110.3333,93.42,71,40,4.61,MY,1697434694
428,Kokopo,-4.352,152.2633,83.71,70,98,8.66,PG,1697434694
429,Prado,-17.3411,-39.2208,73.02,86,10,4.61,BR,1697434695
430,Severo-Yeniseyskiy,60.3725,93.0408,33.58,90,99,8.99,RU,1697434695
431,Menongue,-14.6585,17.691,74.59,38,82,4.47,AO,1697434696
432,Zhangaözen,43.3,52.8,56.84,23,0,24.02,KZ,1697434696
433,Zhanjiang,21.2815,110.3427,85.14,52,28,10.27,CN,1697434696
434,Nova Sintra,14.8667,-24.7167,76.26,70,92,15.21,CV,1697434697
435,Okhotsk,59.3833,143.3,36.12,76,100,11.74,RU,1697434697
436,Kalmunai,7.4167,81.8167,85.17,67,60,1.01,LK,1697434698
437,Popondetta,-8.7537,148.2534,79.32,94,100,0.47,PG,1697434698
438,Mourniés,35.4764,24.0092,72.82,82,20,5.75,GR,1697434698
439,Ketchikan,55.3422,-131.6461,55.38,93,0,3.44,US,1697434611
440,Taro,-8.3862,115.28,80.6,49,57,3.13,ID,1697434699
441,Banepā,27.6298,85.5214,71.92,64,20,3.44,NP,1697434700
442,Olinda,-8.0089,-34.8553,76.73,73,40,11.5,BR,1697434700
443,Bhind,26.5642,78.7883,92.53,28,95,3.67,IN,1697434701
444,Acapulco de Juárez,16.8634,-99.8901,82.22,89,100,3.44,MX,1697434701
445,Vuktyl,63.8567,57.3094,37.11,97,81,10.0,RU,1697434702
446,Amaigbo,5.7892,7.8383,73.72,95,100,0.63,NG,1697434702
447,Neem ka Thana,27.7333,75.8,89.83,28,41,8.01,IN,1697434702
448,Barentu,15.1139,37.5928,83.79,34,10,4.72,ER,1697434703
449,Lázaro Cárdenas,17.9583,-102.2,79.39,89,100,3.49,MX,1697434703
450,San Patricio,28.017,-97.5169,71.46,46,0,8.88,US,1697434704
451,Kill Devil Hills,36.0307,-75.676,57.22,66,100,6.91,US,1697434705
452,Makassar,-5.14,119.4221,91.45,55,20,14.97,ID,1697434705
453,Telavi,41.9198,45.4731,58.01,51,66,1.12,GE,1697434622
454,Lüderitz,-26.6481,15.1594,62.74,66,0,5.32,NA,1697434706
455,Erenhot,43.6475,111.9767,61.7,19,13,9.4,CN,1697434706
456,Urzhar,47.093,81.6294,49.17,58,87,2.19,KZ,1697434707
457,Belyy Yar,53.6039,91.3903,49.89,57,0,11.18,RU,1697434707
458,Yuzhno-Kurilsk,44.0306,145.8556,57.38,69,64,7.29,RU,1697434707
459,Pimenta Bueno,-11.6725,-61.1936,75.36,81,77,1.01,BR,1697434708
460,Bodaybo,57.8506,114.1933,46.49,57,100,1.99,RU,1697434708
461,Mogadishu,2.0371,45.3438,82.27,89,40,9.22,SO,1697434437
462,Hasaki,35.7333,140.8333,75.6,53,0,6.78,JP,1697434709
463,Dalandzadgad,43.5708,104.425,63.18,15,80,13.98,MN,1697434709
464,Kailua-Kona,19.6406,-155.9956,80.56,91,75,6.91,US,1697434602
465,Usogorsk,63.4106,48.6872,43.66,84,96,11.52,RU,1697434710
466,Killarney,52.05,-9.5167,44.92,88,100,4.54,IE,1697434421
467,Seonsan,36.2408,128.2975,69.46,42,0,6.91,KR,1697434711
468,Ballina,-28.8667,153.5667,90.79,45,56,16.8,AU,1697434712
469,Rio Grande,-32.035,-52.0986,65.95,89,100,18.75,BR,1697434712
470,Aral,40.5156,81.2636,69.53,20,36,5.28,CN,1697434712
471,Yasuj,30.6682,51.588,60.35,31,0,0.0,IR,1697434713
472,Kapuskasing,49.4169,-82.4331,41.09,81,100,11.5,CA,1697434714
473,Trairi,-3.2778,-39.2689,78.06,80,94,13.91,BR,1697434584
474,Ratnagiri,16.9833,73.3,86.77,62,94,2.51,IN,1697434715
475,Al Bawīţī,28.3492,28.8659,72.82,40,0,2.24,EG,1697434715
476,La Sarre,48.8002,-79.1996,39.54,87,1,10.83,CA,1697434715
477,Tofol,5.3248,163.0078,87.58,74,75,8.05,FM,1697434716
478,Gornopravdinsk,60.05,69.9,45.23,96,100,10.27,RU,1697434716
479,Gurupi,-11.7292,-49.0686,79.9,59,69,1.5,BR,1697434717
480,Terrace,54.5163,-128.6035,51.71,100,75,8.05,CA,1697434717
481,Watampone,-4.5386,120.3279,90.03,46,7,10.04,ID,1697434717
482,Rasht,37.2808,49.5832,62.42,100,40,4.61,IR,1697434718
483,Margate,51.3813,1.3862,46.9,64,100,7.47,GB,1697434719
484,Bubaque,11.2833,-15.8333,82.15,80,65,10.56,GW,1697434719
485,Drayton Valley,53.2168,-114.9854,44.49,72,29,5.35,CA,1697434719
486,Manaure,11.7751,-72.4445,81.72,82,34,6.58,CO,1697434720
487,Suva,-18.1416,178.4415,76.48,69,75,10.36,FJ,1697434720
488,Greymouth,-42.4667,171.2,51.84,84,100,11.21,NZ,1697434721
489,Korsholm,63.1142,21.6822,41.9,62,0,12.66,FI,1697434721
490,Luganville,-15.5333,167.1667,79.3,84,53,10.13,VU,1697434722
491,Saint-Joseph,-21.3667,55.6167,79.18,74,18,2.33,RE,1697434722
492,Shivrājpur,22.4167,73.65,84.16,46,0,0.89,IN,1697434722
493,Karasburg,-28.0167,18.75,63.21,33,0,7.11,NA,1697434723
494,Machiques,10.0644,-72.545,75.13,88,64,4.68,VE,1697434723
495,Avila,40.5833,-5.0,53.65,91,92,3.74,ES,1697434723
496,Okha,53.5739,142.9478,47.39,91,100,16.53,RU,1697434724
497,Gisborne,-38.6533,178.0042,61.07,63,12,5.26,NZ,1697434724
498,Walla Walla,46.0646,-118.343,70.03,72,0,8.05,US,1697434627
499,Yacuiba,-22.038,-63.6797,81.61,40,90,8.95,BO,1697434725
500,San Luis,-33.295,-66.3356,62.82,42,0,9.24,AR,1697434705
501,Macaé,-22.3708,-41.7869,73.15,88,100,6.91,BR,1697434726
502,Barra de Santo Antônio,-9.4047,-35.5072,76.28,69,12,9.95,BR,1697434726
503,Les Cayes,18.2,-73.75,78.67,82,28,1.97,HT,1697434726
504,Las Vegas,36.175,-115.1372,75.69,21,0,5.75,US,1697434418
505,Rawson,-43.3002,-65.1023,48.81,76,9,12.93,AR,1697434727
506,Touros,-5.1989,-35.4608,76.64,77,87,15.57,BR,1697434728
507,Montevideo,-34.8335,-56.1674,62.31,94,100,12.66,UY,1697434728
508,Sarandí del Yi,-33.35,-55.6333,59.95,93,100,12.08,UY,1697434728
509,Harper,4.375,-7.7169,75.45,91,99,7.25,LR,1697434729
510,Kapoeta,4.7717,33.5903,79.2,66,100,5.93,SS,1697434730
511,Hassi Messaoud,31.6804,6.0729,62.46,34,0,2.3,DZ,1697434730
512,Bodø,67.28,14.405,44.64,72,75,14.97,NO,1697434730
513,Bryne,58.7354,5.6477,41.58,88,75,3.44,NO,1697434460
514,Arrondissement du Havre,49.5833,0.3333,39.6,93,0,8.05,FR,1697434731
515,Nagato,34.3833,131.2,69.96,54,11,9.84,JP,1697434732
516,Antsohihy,-14.8796,47.9875,89.31,54,44,2.21,MG,1697434733
517,Miass,55.045,60.1083,51.62,72,82,8.08,RU,1697434735
518,Kalemie,-5.9475,29.1947,76.51,70,100,5.26,CD,1697434735
519,Kidal,18.4411,1.4078,79.95,17,6,7.85,ML,1697434735
520,Bonthe,7.5264,-12.505,78.46,86,100,2.86,SL,1697434735
521,Aver-o-Mar,41.4078,-8.7812,67.24,88,75,11.5,PT,1697434736
522,Vung Tau,10.346,107.0843,81.27,82,94,10.78,VN,1697434736
523,Soverato Marina,38.685,16.5499,73.15,82,96,9.4,IT,1697434736
524,Gaimán,-43.2897,-65.4929,50.2,49,6,6.08,AR,1697434736
525,Broken Hill,-31.95,141.4333,70.32,22,1,20.2,AU,1697434641
526,Dwārka,22.2394,68.9678,83.32,65,1,9.1,IN,1697434737
527,Yŏmju-ŭp,39.8933,124.5981,60.33,31,0,13.67,KP,1697434737
528,Chernyshevskiy,63.0128,112.4714,33.08,99,100,5.55,RU,1697434737
529,Dakhla,23.6848,-15.958,72.55,65,90,12.21,EH,1697434738
530,Porto-Novo,6.4965,2.6036,80.42,92,99,4.94,BJ,1697434738
531,Klyuchi,52.2667,79.1667,49.8,46,42,12.62,RU,1697434738
532,Monywa,22.1167,95.1333,86.49,60,1,6.08,MM,1697434738
533,Calipatria,33.1256,-115.5142,73.89,18,0,4.59,US,1697434739
534,Sumbe,-11.2061,13.8437,74.64,81,88,3.38,AO,1697434739
535,Ivdel',60.6911,60.4206,52.2,92,98,5.99,RU,1697434739
536,Lata,40.1629,-8.3327,66.81,95,93,3.6,PT,1697434740
537,Mount Pearl,47.5166,-52.7813,51.85,95,100,6.91,CA,1697434490
538,Río San Juan,19.6439,-70.0763,79.16,85,59,5.23,DO,1697434740
539,Leticia,-4.2153,-69.9406,78.85,94,75,0.0,CO,1697434741
540,Port Antonio,18.18,-76.4612,84.11,82,95,3.44,JM,1697434683
541,Peniche,39.3558,-9.3811,67.1,95,100,8.99,PT,1697434741
542,Pacific Grove,36.6177,-121.9166,60.42,89,100,1.99,US,1697434742
543,Cidade Velha,14.9167,-23.6167,86.47,21,40,17.27,CV,1697434742
544,Spassk,52.747,87.7545,40.78,85,92,8.66,RU,1697434742
545,Kholmsk,47.0511,142.0569,44.2,69,86,17.27,RU,1697434743
546,Komsomol'skiy,43.9783,46.6985,65.91,73,86,15.5,RU,1697434743
547,Tarko-Sale,64.9225,77.785,35.01,83,100,5.01,RU,1697434744
548,Parabel',58.6978,81.4825,37.9,86,96,8.99,RU,1697434745
549,Howrah,22.5892,88.3103,89.6,55,20,3.44,IN,1697434745
550,Kerch,45.3583,36.4758,61.56,72,10,5.99,UA,1697434645
551,Medina,24.4686,39.6142,82.83,16,0,0.0,SA,1697434746
552,Plastun,44.7561,136.2939,45.09,61,87,7.0,RU,1697434746
553,Orcopampa,-15.2661,-72.3417,49.84,67,62,1.34,PE,1697434747
554,Happy Valley-Goose Bay,53.3168,-60.3315,39.51,81,100,13.8,CA,1697434747
555,Três Passos,-27.4556,-53.9319,68.27,94,38,5.61,BR,1697434744
556,La Passe,45.5549,-0.8967,46.98,68,100,11.07,FR,1697434748
557,Larkird,35.4894,66.6641,57.15,52,57,2.39,AF,1697434580
558,Greeneville,36.1632,-82.831,47.75,92,100,0.0,US,1697434749
559,Yilan,24.757,121.753,82.26,64,98,4.76,TW,1697434749
560,Lensk,60.7253,114.9278,41.72,78,100,8.01,RU,1697434750
561,Sambava,-14.2667,50.1667,80.29,70,26,3.6,MG,1697434750
562,Bikaner,28.0167,73.3,90.63,31,32,11.83,IN,1697434608
563,Torghay,49.6339,63.4981,58.77,51,88,8.03,KZ,1697434751
564,Lewistown,40.5992,-77.5714,48.18,87,0,6.91,US,1697434751
565,Oodweyne,9.4092,45.064,79.25,54,24,6.02,SO,1697434751
566,Barroquinha,-3.0189,-41.1361,77.11,81,97,8.14,BR,1697434752
567,Smīrnovo,54.5125,69.4222,50.02,68,100,15.26,KZ,1697434752
568,Karditsa,39.3656,21.9217,54.99,60,3,0.78,GR,1697434753
569,Borogontsy,62.6683,131.1683,22.28,62,23,1.01,RU,1697434753
570,Sungailiat,-1.85,106.1333,88.03,59,46,13.02,ID,1697434754
571,Miguel Ahumada,30.6167,-106.5167,66.79,35,0,10.0,MX,1697434754
572,Borovichi,58.3878,33.9155,40.01,92,71,8.01,RU,1697434755
573,Nyala,12.05,24.8833,85.42,25,100,11.34,SD,1697434755
574,Yinzhu,35.8786,119.9753,69.82,29,0,4.72,CN,1697434756
575,Starotitarovskaya,45.2136,37.1439,59.49,76,7,13.6,RU,1697434756
